[{"id": "hp-01", "name": "BTP051 - Safina Plaza Junction", "lat": 12.981211, "lng": 77.60869, "severity": 100, "violationCount": 15174, "vehicleMix": {"cars": 20, "scooters": 44, "autos": 33, "trucks": 1, "buses": 2}, "peakHours": "04:00-06:00", "peakWindow": [4, 6], "trend": [143, 75, 112, 14, 39, 68, 142], "topViolations": ["Wrong Parking", "No Parking", "Wrong Parking, Defective Number Plate"], "zone": "Shivajinagar", "position": [0.056, 0, -0.056]}, {"id": "hp-02", "name": "BTP082 - KR Market Junction", "lat": 12.964423, "lng": 77.577245, "severity": 84, "violationCount": 11375, "vehicleMix": {"cars": 13, "scooters": 57, "autos": 21, "trucks": 8, "buses": 1}, "peakHours": "18:00-20:00", "peakWindow": [18, 20], "trend": [47, 107, 114, 45, 60, 102, 6], "topViolations": ["Wrong Parking", "No Parking", "Wrong Parking, Defective Number Plate"], "zone": "City Market", "position": [-1.09, 0, -0.521]}, {"id": "hp-03", "name": "BTP040 - Elite Junction", "lat": 12.976599, "lng": 77.576601, "severity": 81, "violationCount": 10635, "vehicleMix": {"cars": 24, "scooters": 62, "autos": 10, "trucks": 2, "buses": 2}, "peakHours": "02:00-04:00", "peakWindow": [2, 4], "trend": [148, 135, 55, 13, 106, 97, 57], "topViolations": ["No Parking", "Wrong Parking", "No Parking, Defective Number Plate"], "zone": "Upparpet", "position": [-1.113, 0, -0.184]}, {"id": "hp-04", "name": "BTP044 - Sagar Theatre Junction", "lat": 12.974934, "lng": 77.578896, "severity": 79, "violationCount": 10279, "vehicleMix": {"cars": 30, "scooters": 51, "autos": 9, "trucks": 6, "buses": 3}, "peakHours": "02:00-04:00", "peakWindow": [2, 4], "trend": [128, 73, 43, 33, 119, 136, 21], "topViolations": ["No Parking", "Wrong Parking", "Wrong Parking, Parking In A Main Road"], "zone": "Upparpet", "position": [-1.03, 0, -0.23]}, {"id": "hp-05", "name": "BTP211 - Central Street Junction", "lat": 12.983375, "lng": 77.603449, "severity": 58, "violationCount": 5331, "vehicleMix": {"cars": 17, "scooters": 22, "autos": 56, "trucks": 2, "buses": 2}, "peakHours": "04:00-06:00", "peakWindow": [4, 6], "trend": [0, 27, 5, 17, 16, 14, 6], "topViolations": ["Wrong Parking", "No Parking", "Parking In A Main Road, Wrong Parking"], "zone": "Shivajinagar", "position": [-0.135, 0, 0.004]}, {"id": "hp-06", "name": "BTP058 - Subbanna Junction", "lat": 12.979023, "lng": 77.578655, "severity": 57, "violationCount": 5124, "vehicleMix": {"cars": 62, "scooters": 19, "autos": 7, "trucks": 5, "buses": 7}, "peakHours": "18:00-20:00", "peakWindow": [18, 20], "trend": [33, 33, 65, 10, 152, 100, 2], "topViolations": ["No Parking", "Wrong Parking", "No Parking, Defective Number Plate"], "zone": "Upparpet", "position": [-1.039, 0, -0.117]}, {"id": "hp-07", "name": "BTP027 - Modi Bridge Junction", "lat": 12.998876, "lng": 77.549442, "severity": 53, "violationCount": 4296, "vehicleMix": {"cars": 20, "scooters": 74, "autos": 4, "trucks": 1, "buses": 0}, "peakHours": "02:00-04:00", "peakWindow": [2, 4], "trend": [5, 35, 36, 66, 6, 69, 12], "topViolations": ["Wrong Parking", "No Parking", "No Parking, Parking In A Main Road"], "zone": "Rajajinagar", "position": [-2.103, 0, 0.433]}, {"id": "hp-08", "name": "BTP020 - Hosahalli Metro Station", "lat": 12.974143, "lng": 77.545292, "severity": 52, "violationCount": 4054, "vehicleMix": {"cars": 5, "scooters": 94, "autos": 1, "trucks": 0, "buses": 0}, "peakHours": "21:00-23:00", "peakWindow": [21, 23], "trend": [14, 19, 38, 0, 0, 0, 0], "topViolations": ["Wrong Parking", "No Parking", "Wrong Parking, Defective Number Plate"], "zone": "Vijayanagara", "position": [-2.255, 0, -0.252]}, {"id": "hp-09", "name": "BTP057 - Anand Rao Junction", "lat": 12.979395, "lng": 77.574387, "severity": 52, "violationCount": 3920, "vehicleMix": {"cars": 34, "scooters": 24, "autos": 26, "trucks": 5, "buses": 11}, "peakHours": "02:00-04:00", "peakWindow": [2, 4], "trend": [17, 12, 30, 38, 64, 44, 16], "topViolations": ["Wrong Parking", "No Parking", "Wrong Parking, Defective Number Plate"], "zone": "Upparpet", "position": [-1.194, 0, -0.106]}, {"id": "hp-10", "name": "BTP080 - NR Road, SP Road Junction", "lat": 12.964404, "lng": 77.583169, "severity": 51, "violationCount": 3629, "vehicleMix": {"cars": 17, "scooters": 58, "autos": 15, "trucks": 9, "buses": 1}, "peakHours": "03:00-05:00", "peakWindow": [3, 5], "trend": [29, 46, 7, 19, 20, 32, 4], "topViolations": ["Wrong Parking", "No Parking", "No Parking, Parking In A Main Road"], "zone": "Halasuru Gate", "position": [-0.874, 0, -0.521]}, {"id": "hp-11", "name": "BTP045 - Danvanthri Road Junction", "lat": 12.977062, "lng": 77.574788, "severity": 48, "violationCount": 3149, "vehicleMix": {"cars": 27, "scooters": 40, "autos": 19, "trucks": 4, "buses": 9}, "peakHours": "04:00-06:00", "peakWindow": [4, 6], "trend": [17, 19, 14, 24, 19, 32, 34], "topViolations": ["Wrong Parking", "No Parking", "Wrong Parking, Parking In A Main Road"], "zone": "Upparpet", "position": [-1.18, 0, -0.171]}, {"id": "hp-12", "name": "BTP001 - 10th Cross, Dr. Rajkumar Road", "lat": 13.007809, "lng": 77.55465, "severity": 47, "violationCount": 2784, "vehicleMix": {"cars": 61, "scooters": 31, "autos": 4, "trucks": 1, "buses": 2}, "peakHours": "03:00-05:00", "peakWindow": [3, 5], "trend": [11, 18, 22, 21, 57, 39, 16], "topViolations": ["Wrong Parking", "No Parking", "No Parking, Defective Number Plate"], "zone": "Malleshwaram", "position": [-1.914, 0, 0.68]}, {"id": "hp-13", "name": "BTP083 - AS Char Street, Mysore Road", "lat": 12.966443, "lng": 77.574406, "severity": 47, "violationCount": 2736, "vehicleMix": {"cars": 20, "scooters": 24, "autos": 33, "trucks": 22, "buses": 1}, "peakHours": "18:00-20:00", "peakWindow": [18, 20], "trend": [19, 24, 12, 0, 13, 19, 2], "topViolations": ["Wrong Parking", "No Parking", "Parking In A Main Road, Wrong Parking"], "zone": "Chamarajpet", "position": [-1.193, 0, -0.465]}, {"id": "hp-14", "name": "BTP032 - Windsor Circle", "lat": 12.993082, "lng": 77.58818, "severity": 47, "violationCount": 2709, "vehicleMix": {"cars": 15, "scooters": 81, "autos": 2, "trucks": 1, "buses": 0}, "peakHours": "21:00-23:00", "peakWindow": [21, 23], "trend": [0, 0, 2, 9, 1, 9, 0], "topViolations": ["Wrong Parking", "No Parking", "Wrong Parking, Defective Number Plate"], "zone": "High ground", "position": [-0.691, 0, 0.273]}, {"id": "hp-15", "name": "BTP016 - 5th Main Road, RPC Layout", "lat": 12.965246, "lng": 77.537842, "severity": 46, "violationCount": 2470, "vehicleMix": {"cars": 26, "scooters": 68, "autos": 4, "trucks": 1, "buses": 1}, "peakHours": "20:00-22:00", "peakWindow": [20, 22], "trend": [0, 2, 0, 0, 0, 0, 17], "topViolations": ["Wrong Parking", "No Parking", "Wrong Parking, Defective Number Plate"], "zone": "Vijayanagara", "position": [-2.526, 0, -0.498]}, {"id": "hp-16", "name": "BTP070 - Cholurpalya Junction, Magadi Road", "lat": 12.973484, "lng": 77.550804, "severity": 45, "violationCount": 2247, "vehicleMix": {"cars": 3, "scooters": 92, "autos": 4, "trucks": 1, "buses": 1}, "peakHours": "05:00-07:00", "peakWindow": [5, 7], "trend": [3, 7, 11, 0, 3, 20, 29], "topViolations": ["No Parking", "Wrong Parking", "No Parking, Defective Number Plate"], "zone": "Magadi Road", "position": [-2.054, 0, -0.27]}, {"id": "hp-17", "name": "BTP042 - Minsk Square Junction (CTO)", "lat": 12.981179, "lng": 77.598458, "severity": 44, "violationCount": 1997, "vehicleMix": {"cars": 4, "scooters": 92, "autos": 3, "trucks": 0, "buses": 1}, "peakHours": "22:00-23:00", "peakWindow": [22, 23], "trend": [8, 15, 8, 0, 3, 0, 0], "topViolations": ["Wrong Parking", "No Parking", "Wrong Parking, Defective Number Plate"], "zone": "Shivajinagar", "position": [-0.317, 0, -0.057]}, {"id": "hp-18", "name": "BTP038 - Mysore Bank Junction", "lat": 12.973405, "lng": 77.581236, "severity": 44, "violationCount": 1985, "vehicleMix": {"cars": 30, "scooters": 38, "autos": 19, "trucks": 5, "buses": 6}, "peakHours": "03:00-05:00", "peakWindow": [3, 5], "trend": [21, 2, 14, 1, 7, 11, 0], "topViolations": ["Wrong Parking", "No Parking", "Wrong Parking, Defective Number Plate"], "zone": "Upparpet", "position": [-0.944, 0, -0.272]}, {"id": "hp-19", "name": "BTP108 - Tagore Park Junction", "lat": 12.9439, "lng": 77.571432, "severity": 43, "violationCount": 1789, "vehicleMix": {"cars": 23, "scooters": 69, "autos": 6, "trucks": 1, "buses": 0}, "peakHours": "04:00-06:00", "peakWindow": [4, 6], "trend": [14, 21, 34, 35, 34, 7, 15], "topViolations": ["Wrong Parking", "No Parking", "Parking In A Main Road, Wrong Parking"], "zone": "Basavanagudi", "position": [-1.302, 0, -1.089]}, {"id": "hp-20", "name": "BTP043 - Upparpet Junction", "lat": 12.971142, "lng": 77.575572, "severity": 43, "violationCount": 1782, "vehicleMix": {"cars": 13, "scooters": 47, "autos": 26, "trucks": 12, "buses": 2}, "peakHours": "01:00-03:00", "peakWindow": [1, 3], "trend": [4, 4, 20, 2, 4, 12, 0], "topViolations": ["Wrong Parking", "No Parking", "Wrong Parking, Defective Number Plate"], "zone": "City Market", "position": [-1.151, 0, -0.335]}]